[
  {
    "code": "IDN",
    "name": "Indonesia",
    "lat": -2.5062598609999327,
    "lng": 117.99516645950004
  },
  {
    "code": "MYS",
    "name": "Malaysia",
    "lat": 4.103575341000088,
    "lng": 109.46165742250005
  },
  {
    "code": "CHL",
    "name": "Chile",
    "lat": -36.71254621049992,
    "lng": -87.93726559149994
  },
  {
    "code": "BOL",
    "name": "Bolivia",
    "lat": -16.288539529999973,
    "lng": -63.56607651849991
  },
  {
    "code": "PER",
    "name": "Peru",
    "lat": -9.183419459184005,
    "lng": -75.01090500599992
  },
  {
    "code": "ARG",
    "name": "Argentina",
    "lat": -38.41947682349994,
    "lng": -63.61714575249994
  },
  {
    "code": "-99",
    "name": "Dhekelia",
    "lat": 35.028443708500056,
    "lng": 33.7977867030001
  },
  {
    "code": "CYP",
    "name": "Cyprus",
    "lat": 34.90605078000007,
    "lng": 33.18543541800008
  },
  {
    "code": "IND",
    "name": "India",
    "lat": 21.120478213500085,
    "lng": 82.75282779600005
  },
  {
    "code": "CHN",
    "name": "China",
    "lat": 34.67241058700008,
    "lng": 104.18741784700006
  },
  {
    "code": "ISR",
    "name": "Israel",
    "lat": 31.448206586500028,
    "lng": 35.06821170350008
  },
  {
    "code": "PSE",
    "name": "Palestine",
    "lat": 31.87704451700006,
    "lng": 34.88640284815304
  },
  {
    "code": "LBN",
    "name": "Lebanon",
    "lat": 33.87156412750001,
    "lng": 35.851860592000065
  },
  {
    "code": "ETH",
    "name": "Ethiopia",
    "lat": 9.14143280050007,
    "lng": 40.484484497000125
  },
  {
    "code": "SSD",
    "name": "S. Sudan",
    "lat": 7.85317810100009,
    "lng": 30.02119551600009
  },
  {
    "code": "SOM",
    "name": "Somalia",
    "lat": 5.146407826500052,
    "lng": 46.1912115935001
  },
  {
    "code": "KEN",
    "name": "Kenya",
    "lat": 0.17643582880386788,
    "lng": 37.88774377450011
  },
  {
    "code": "MWI",
    "name": "Malawi",
    "lat": -13.258285217499889,
    "lng": 34.28380354850012
  },
  {
    "code": "TZA",
    "name": "Tanzania",
    "lat": -6.35855133099993,
    "lng": 34.88521182900007
  },
  {
    "code": "SYR",
    "name": "Syria",
    "lat": 34.81897399900008,
    "lng": 39.050292395500065
  },
  {
    "code": "-99",
    "name": "Somaliland",
    "lat": 9.74772186600007,
    "lng": 45.79317927045926
  },
  {
    "code": "-99",
    "name": "France",
    "lat": 14.85837936235945,
    "lng": -2.9716690749999373
  },
  {
    "code": "SUR",
    "name": "Suriname",
    "lat": 3.922540270500072,
    "lng": -56.02702432849992
  },
  {
    "code": "GUY",
    "name": "Guyana",
    "lat": 4.871915184500068,
    "lng": -58.93926590999992
  },
  {
    "code": "KOR",
    "name": "South Korea",
    "lat": 35.91095612200007,
    "lng": 128.23806963500004
  },
  {
    "code": "PRK",
    "name": "North Korea",
    "lat": 40.342937218500076,
    "lng": 127.45563888700002
  },
  {
    "code": "MAR",
    "name": "Morocco",
    "lat": 28.673245123291743,
    "lng": -9.022871398196557
  },
  {
    "code": "ESH",
    "name": "W. Sahara",
    "lat": 24.214189151000035,
    "lng": -12.892726708499907
  },
  {
    "code": "CRI",
    "name": "Costa Rica",
    "lat": 8.362509565000074,
    "lng": -84.84025102099991
  },
  {
    "code": "NIC",
    "name": "Nicaragua",
    "lat": 12.8722257485001,
    "lng": -85.20575924399992
  },
  {
    "code": "COG",
    "name": "Congo",
    "lat": -0.6556773869999333,
    "lng": 14.878211582054922
  },
  {
    "code": "COD",
    "name": "Dem. Rep. Congo",
    "lat": -4.041535135499927,
    "lng": 21.745494015000077
  },
  {
    "code": "BTN",
    "name": "Bhutan",
    "lat": 27.52727416239317,
    "lng": 90.40942163050008
  },
  {
    "code": "UKR",
    "name": "Ukraine",
    "lat": 48.79125885350006,
    "lng": 31.146191447000106
  },
  {
    "code": "BLR",
    "name": "Belarus",
    "lat": 53.69598714250009,
    "lng": 27.942588541500044
  },
  {
    "code": "NAM",
    "name": "Namibia",
    "lat": -22.95521270749991,
    "lng": 18.48870100550009
  },
  {
    "code": "ZAF",
    "name": "South Africa",
    "lat": -34.546102393999924,
    "lng": 27.223887566000087
  },
  {
    "code": "MAF",
    "name": "St-Martin",
    "lat": 18.07776461717568,
    "lng": -63.078785773999925
  },
  {
    "code": "SXM",
    "name": "Sint Maarten",
    "lat": 18.040615139000067,
    "lng": -63.06822722814415
  },
  {
    "code": "OMN",
    "name": "Oman",
    "lat": 21.514186916000057,
    "lng": 55.911594682500095
  },
  {
    "code": "UZB",
    "name": "Uzbekistan",
    "lat": 41.371933187000025,
    "lng": 64.56223962350009
  },
  {
    "code": "KAZ",
    "name": "Kazakhstan",
    "lat": 48.00960296650007,
    "lng": 66.90103743500009
  },
  {
    "code": "TJK",
    "name": "Tajikistan",
    "lat": 38.85930877700011,
    "lng": 71.2534074300001
  },
  {
    "code": "LTU",
    "name": "Lithuania",
    "lat": 55.164721781500006,
    "lng": 23.862644478182546
  },
  {
    "code": "BRA",
    "name": "Brazil",
    "lat": -14.237527770999947,
    "lng": -51.44776963649994
  },
  {
    "code": "URY",
    "name": "Uruguay",
    "lat": -32.53513620699992,
    "lng": -55.775098636999914
  },
  {
    "code": "MNG",
    "name": "Mongolia",
    "lat": 46.857864482000025,
    "lng": 103.82136783900012
  },
  {
    "code": "RUS",
    "name": "Russia",
    "lat": 61.525695295000084,
    "lng": 4.263256414560601e-14
  },
  {
    "code": "CZE",
    "name": "Czechia",
    "lat": 49.798964030500045,
    "lng": 15.456787353500076
  },
  {
    "code": "DEU",
    "name": "Germany",
    "lat": 51.16822764400006,
    "lng": 10.43727461750008
  },
  {
    "code": "EST",
    "name": "Estonia",
    "lat": 58.593351545000026,
    "lng": 25.009421424000095
  },
  {
    "code": "LVA",
    "name": "Latvia",
    "lat": 56.87106465750007,
    "lng": 24.592936234500073
  },
  {
    "code": "-99",
    "name": "Norway",
    "lat": 13.153794663500065,
    "lng": 12.26148522200009
  },
  {
    "code": "SWE",
    "name": "Sweden",
    "lat": 62.18951691000009,
    "lng": 17.6357892220001
  },
  {
    "code": "FIN",
    "name": "Finland",
    "lat": 64.94326752050009,
    "lng": 26.09634464500006
  },
  {
    "code": "VNM",
    "name": "Vietnam",
    "lat": 15.965926822500059,
    "lng": 105.79553897750006
  },
  {
    "code": "KHM",
    "name": "Cambodia",
    "lat": 12.56017761250002,
    "lng": 104.96197005250008
  },
  {
    "code": "LUX",
    "name": "Luxembourg",
    "lat": 49.80814951650005,
    "lng": 6.1087532960000885
  },
  {
    "code": "ARE",
    "name": "United Arab Emirates",
    "lat": 24.34786895750007,
    "lng": 53.97649173250005
  },
  {
    "code": "BEL",
    "name": "Belgium",
    "lat": 50.495730286000054,
    "lng": 4.44816255727288
  },
  {
    "code": "GEO",
    "name": "Georgia",
    "lat": 42.30997670500004,
    "lng": 43.34038972821833
  },
  {
    "code": "MKD",
    "name": "North Macedonia",
    "lat": 41.60986440100007,
    "lng": 21.726869751000095
  },
  {
    "code": "ALB",
    "name": "Albania",
    "lat": 41.14591339150006,
    "lng": 20.154355916000085
  },
  {
    "code": "AZE",
    "name": "Azerbaijan",
    "lat": 40.141543172500064,
    "lng": 47.70015079400011
  },
  {
    "code": "-99",
    "name": "Kosovo",
    "lat": 42.55354065000006,
    "lng": 20.89875492300004
  },
  {
    "code": "TUR",
    "name": "Turkey",
    "lat": 38.95928009400006,
    "lng": 35.235126070000064
  },
  {
    "code": "ESP",
    "name": "Spain",
    "lat": 35.717840887500046,
    "lng": -6.915069139499934
  },
  {
    "code": "LAO",
    "name": "Laos",
    "lat": 18.2057503260001,
    "lng": 103.88071822100011
  },
  {
    "code": "KGZ",
    "name": "Kyrgyzstan",
    "lat": 41.22546925850007,
    "lng": 74.74192834450011
  },
  {
    "code": "ARM",
    "name": "Armenia",
    "lat": 40.077076823500036,
    "lng": 45.01945316600009
  },
  {
    "code": "DNK",
    "name": "Denmark",
    "lat": 56.15987783400004,
    "lng": 11.622691277000087
  },
  {
    "code": "LBY",
    "name": "Libya",
    "lat": 26.33867453700003,
    "lng": 17.22140221800008
  },
  {
    "code": "TUN",
    "name": "Tunisia",
    "lat": 33.78705312450008,
    "lng": 9.521981649000097
  },
  {
    "code": "ROU",
    "name": "Romania",
    "lat": 45.962441102000085,
    "lng": 24.971190426500073
  },
  {
    "code": "HUN",
    "name": "Hungary",
    "lat": 47.15528818800004,
    "lng": 19.485817912000087
  },
  {
    "code": "SVK",
    "name": "Slovakia",
    "lat": 48.67589304650005,
    "lng": 19.692058553000123
  },
  {
    "code": "POL",
    "name": "Poland",
    "lat": 51.91616872500007,
    "lng": 19.133539672500063
  },
  {
    "code": "IRL",
    "name": "Ireland",
    "lat": 53.416042385000054,
    "lng": -8.235849575999936
  },
  {
    "code": "GBR",
    "name": "United Kingdom",
    "lat": 55.378749904000045,
    "lng": -5.960072394999941
  },
  {
    "code": "GRC",
    "name": "Greece",
    "lat": 38.28274241450007,
    "lng": 23.933116082000083
  },
  {
    "code": "ZMB",
    "name": "Zambia",
    "lat": -13.131677957499932,
    "lng": 27.827040039000053
  },
  {
    "code": "SLE",
    "name": "Sierra Leone",
    "lat": 8.457712812500077,
    "lng": -11.79166601899992
  },
  {
    "code": "GIN",
    "name": "Guinea",
    "lat": 9.931797994500066,
    "lng": -11.371786462499955
  },
  {
    "code": "LBR",
    "name": "Liberia",
    "lat": 6.456315514000067,
    "lng": -9.43015194049994
  },
  {
    "code": "CAF",
    "name": "Central African Rep.",
    "lat": 6.61864105250006,
    "lng": 20.914283691000108
  },
  {
    "code": "SDN",
    "name": "Sudan",
    "lat": 15.454303283500074,
    "lng": 30.206650224500095
  },
  {
    "code": "DJI",
    "name": "Djibouti",
    "lat": 11.81886871650007,
    "lng": 42.58391096650007
  },
  {
    "code": "ERI",
    "name": "Eritrea",
    "lat": 15.182425031500067,
    "lng": 39.77375919250005
  },
  {
    "code": "AUT",
    "name": "Austria",
    "lat": 47.69420878100007,
    "lng": 13.334746337500093
  },
  {
    "code": "IRQ",
    "name": "Iraq",
    "lat": 33.219317118500044,
    "lng": 43.666883378500046
  },
  {
    "code": "ITA",
    "name": "Italy",
    "lat": 41.28722941350005,
    "lng": 12.56007714450007
  },
  {
    "code": "CHE",
    "name": "Switzerland",
    "lat": 46.81094228150003,
    "lng": 8.21071801750007
  },
  {
    "code": "IRN",
    "name": "Iran",
    "lat": 32.41546758150006,
    "lng": 53.667245727500074
  },
  {
    "code": "NLD",
    "name": "Netherlands",
    "lat": 32.790065822500054,
    "lng": -30.609441287999942
  },
  {
    "code": "LIE",
    "name": "Liechtenstein",
    "lat": 47.15760070850007,
    "lng": 9.545804484000115
  },
  {
    "code": "CIV",
    "name": "Côte d'Ivoire",
    "lat": 7.535269880500053,
    "lng": -5.562523966499924
  },
  {
    "code": "SRB",
    "name": "Serbia",
    "lat": 44.20441002200012,
    "lng": 20.914774617500086
  },
  {
    "code": "MLI",
    "name": "Mali",
    "lat": 17.567559306500094,
    "lng": -4.014246378499891
  },
  {
    "code": "SEN",
    "name": "Senegal",
    "lat": 14.498495992500068,
    "lng": -14.456908531999943
  },
  {
    "code": "NGA",
    "name": "Nigeria",
    "lat": 9.076226504500049,
    "lng": 8.6705090735001
  },
  {
    "code": "BEN",
    "name": "Benin",
    "lat": 9.306569115000109,
    "lng": 2.298649942500063
  },
  {
    "code": "AGO",
    "name": "Angola",
    "lat": -11.211304219499908,
    "lng": 17.865554229000097
  },
  {
    "code": "HRV",
    "name": "Croatia",
    "lat": 44.48165314050009,
    "lng": 16.454656816000096
  },
  {
    "code": "SVN",
    "name": "Slovenia",
    "lat": 46.14379954050001,
    "lng": 14.940281412500084
  },
  {
    "code": "QAT",
    "name": "Qatar",
    "lat": 25.359986575500052,
    "lng": 51.18376712300005
  },
  {
    "code": "SAU",
    "name": "Saudi Arabia",
    "lat": 24.246152855500064,
    "lng": 45.10516462850006
  },
  {
    "code": "BWA",
    "name": "Botswana",
    "lat": -22.336800841999967,
    "lng": 24.664209838500085
  },
  {
    "code": "ZWE",
    "name": "Zimbabwe",
    "lat": -19.0060739139999,
    "lng": 29.131068970000086
  },
  {
    "code": "PAK",
    "name": "Pakistan",
    "lat": 30.37450449950004,
    "lng": 68.94667484550007
  },
  {
    "code": "BGR",
    "name": "Bulgaria",
    "lat": 42.73326934300002,
    "lng": 25.47427473600007
  },
  {
    "code": "THA",
    "name": "Thailand",
    "lat": 13.037448222000094,
    "lng": 101.50119938150007
  },
  {
    "code": "SMR",
    "name": "San Marino",
    "lat": 43.93731115050004,
    "lng": 12.4390104995001
  },
  {
    "code": "HTI",
    "name": "Haiti",
    "lat": 19.05786774300006,
    "lng": -73.06413834999991
  },
  {
    "code": "DOM",
    "name": "Dominican Rep.",
    "lat": 18.741624253000055,
    "lng": -70.16922013699991
  },
  {
    "code": "TCD",
    "name": "Chad",
    "lat": 15.450143331000085,
    "lng": 18.71679508450009
  },
  {
    "code": "KWT",
    "name": "Kuwait",
    "lat": 29.315860290500055,
    "lng": 47.48260848850009
  },
  {
    "code": "SLV",
    "name": "El Salvador",
    "lat": 13.802004703000065,
    "lng": -88.90398626199993
  },
  {
    "code": "GTM",
    "name": "Guatemala",
    "lat": 15.773711800990347,
    "lng": -90.2335965784999
  },
  {
    "code": "TLS",
    "name": "Timor-Leste",
    "lat": -8.818125708999936,
    "lng": 125.67164147250003
  },
  {
    "code": "BRN",
    "name": "Brunei",
    "lat": 4.536938683000059,
    "lng": 114.6797654590001
  },
  {
    "code": "MCO",
    "name": "Monaco",
    "lat": 43.74073731550005,
    "lng": 7.401602119563048
  },
  {
    "code": "DZA",
    "name": "Algeria",
    "lat": 28.034750369000058,
    "lng": 1.6432377520000898
  },
  {
    "code": "MOZ",
    "name": "Mozambique",
    "lat": -18.664639787499922,
    "lng": 35.53091881950007
  },
  {
    "code": "SWZ",
    "name": "eSwatini",
    "lat": -26.52613169349994,
    "lng": 31.45015222200007
  },
  {
    "code": "BDI",
    "name": "Burundi",
    "lat": -3.3832032269999104,
    "lng": 29.910427083000087
  },
  {
    "code": "RWA",
    "name": "Rwanda",
    "lat": -1.9427743529998835,
    "lng": 29.872522420000067
  },
  {
    "code": "MMR",
    "name": "Myanmar",
    "lat": 19.164591372500063,
    "lng": 96.67441390000005
  },
  {
    "code": "BGD",
    "name": "Bangladesh",
    "lat": 23.681129459000054,
    "lng": 90.33232039450004
  },
  {
    "code": "AND",
    "name": "Andorra",
    "lat": 42.53901957200003,
    "lng": 1.5857735595001259
  },
  {
    "code": "AFG",
    "name": "Afghanistan",
    "lat": 33.930139364000084,
    "lng": 67.6895422770001
  },
  {
    "code": "MNE",
    "name": "Montenegro",
    "lat": 42.700124006500054,
    "lng": 19.394350626500085
  },
  {
    "code": "BIH",
    "name": "Bosnia and Herz.",
    "lat": 43.921867981500085,
    "lng": 17.667479288500076
  },
  {
    "code": "UGA",
    "name": "Uganda",
    "lat": 1.3722429405001222,
    "lng": 32.277466064000066
  },
  {
    "code": "-99",
    "name": "USNB Guantanamo Bay",
    "lat": 19.931362963000034,
    "lng": -75.16390457199991
  },
  {
    "code": "CUB",
    "name": "Cuba",
    "lat": 21.546698309500044,
    "lng": -79.54124915249992
  },
  {
    "code": "HND",
    "name": "Honduras",
    "lat": 15.199211938000055,
    "lng": -86.24711786622392
  },
  {
    "code": "ECU",
    "name": "Ecuador",
    "lat": -1.6734992439999345,
    "lng": -83.61942501249992
  },
  {
    "code": "COL",
    "name": "Colombia",
    "lat": 4.670935366500068,
    "lng": -74.29938208399994
  },
  {
    "code": "PRY",
    "name": "Paraguay",
    "lat": -23.436785379999947,
    "lng": -58.44782303899994
  },
  {
    "code": "-99",
    "name": "Brazilian I.",
    "lat": -30.188027425380987,
    "lng": -57.622629197456504
  },
  {
    "code": "PRT",
    "name": "Portugal",
    "lat": 36.09143595750003,
    "lng": -18.745424360499925
  },
  {
    "code": "MDA",
    "name": "Moldova",
    "lat": 46.973903910500056,
    "lng": 28.37473270650007
  },
  {
    "code": "TKM",
    "name": "Turkmenistan",
    "lat": 38.965917257000044,
    "lng": 59.54172615767783
  },
  {
    "code": "JOR",
    "name": "Jordan",
    "lat": 31.280817871500048,
    "lng": 37.120692130897794
  },
  {
    "code": "NPL",
    "name": "Nepal",
    "lat": 28.380335998500072,
    "lng": 84.09967757200008
  },
  {
    "code": "LSO",
    "name": "Lesotho",
    "lat": -29.614780374999945,
    "lng": 28.219031616500104
  },
  {
    "code": "CMR",
    "name": "Cameroon",
    "lat": 7.367845968000076,
    "lng": 12.35638980750008
  },
  {
    "code": "GAB",
    "name": "Gabon",
    "lat": -0.8071805868979611,
    "lng": 11.597278886500106
  },
  {
    "code": "NER",
    "name": "Niger",
    "lat": 17.606562093000058,
    "lng": 8.061631510000112
  },
  {
    "code": "BFA",
    "name": "Burkina Faso",
    "lat": 12.2358950805001,
    "lng": -1.5662045904998934
  },
  {
    "code": "TGO",
    "name": "Togo",
    "lat": 8.61773549700009,
    "lng": 0.8081207685000891
  },
  {
    "code": "GHA",
    "name": "Ghana",
    "lat": 7.950032657000051,
    "lng": -1.0372704669999706
  },
  {
    "code": "GNB",
    "name": "Guinea-Bissau",
    "lat": 11.803536482500057,
    "lng": -15.194574304957214
  },
  {
    "code": "GIB",
    "name": "Gibraltar",
    "lat": 36.125810032499984,
    "lng": -5.348580120852014
  },
  {
    "code": "USA",
    "name": "United States of America",
    "lat": 45.159309744500064,
    "lng": 0.3187158540000752
  },
  {
    "code": "CAN",
    "name": "Canada",
    "lat": 62.39280406000007,
    "lng": -96.81108557849993
  },
  {
    "code": "MEX",
    "name": "Mexico",
    "lat": 23.629557940500092,
    "lng": -102.53469791499992
  },
  {
    "code": "BLZ",
    "name": "Belize",
    "lat": 17.185205384000056,
    "lng": -88.50979132499992
  },
  {
    "code": "PAN",
    "name": "Panama",
    "lat": 8.41750385800006,
    "lng": -80.10825801649993
  },
  {
    "code": "VEN",
    "name": "Venezuela",
    "lat": 8.176131900000044,
    "lng": -66.60337174499992
  },
  {
    "code": "PNG",
    "name": "Papua New Guinea",
    "lat": -6.491346937999936,
    "lng": 148.40837548500002
  },
  {
    "code": "EGY",
    "name": "Egypt",
    "lat": 26.825424706000064,
    "lng": 30.79376163350011
  },
  {
    "code": "YEM",
    "name": "Yemen",
    "lat": 15.553540592500092,
    "lng": 48.54302005300008
  },
  {
    "code": "MRT",
    "name": "Mauritania",
    "lat": 21.009907328500113,
    "lng": -10.951394001999901
  },
  {
    "code": "GNQ",
    "name": "Eq. Guinea",
    "lat": 1.1483625345000519,
    "lng": 8.474165483500087
  },
  {
    "code": "GMB",
    "name": "Gambia",
    "lat": 13.442496646000073,
    "lng": -15.324206912999912
  },
  {
    "code": "HKG",
    "name": "Hong Kong",
    "lat": 22.370507717500082,
    "lng": 114.11931399800005
  },
  {
    "code": "VAT",
    "name": "Vatican",
    "lat": 41.90333333950011,
    "lng": 12.453374762000081
  },
  {
    "code": "-99",
    "name": "N. Cyprus",
    "lat": 35.34734222700006,
    "lng": 33.597219272000075
  },
  {
    "code": "-99",
    "name": "Cyprus U.N. Buffer Zone",
    "lat": 35.08858286550007,
    "lng": 33.303384760000085
  },
  {
    "code": "-99",
    "name": "Siachen Glacier",
    "lat": 35.379120687500034,
    "lng": 77.28884852750011
  },
  {
    "code": "-99",
    "name": "Baikonur",
    "lat": 45.97833160400006,
    "lng": 63.3838877765001
  },
  {
    "code": "-99",
    "name": "Akrotiri",
    "lat": 34.63474859450006,
    "lng": 32.895193157500074
  },
  {
    "code": "-99",
    "name": "Southern Patagonian Ice Field",
    "lat": -49.516356302999945,
    "lng": -73.32272967992586
  },
  {
    "code": "-99",
    "name": "Bir Tawil",
    "lat": 21.85320592265247,
    "lng": 33.63265749150008
  },
  {
    "code": "ATA",
    "name": "Antarctica",
    "lat": -75.25810429599994,
    "lng": 4.263256414560601e-14
  },
  {
    "code": "AUS",
    "name": "Australia",
    "lat": -31.995293877999927,
    "lng": 136.0129500660001
  },
  {
    "code": "GRL",
    "name": "Greenland",
    "lat": 71.71336497600007,
    "lng": -42.21703040299994
  },
  {
    "code": "FJI",
    "name": "Fiji",
    "lat": -17.093194268999923,
    "lng": 4.263256414560601e-14
  },
  {
    "code": "NZL",
    "name": "New Zealand",
    "lat": -30.571770045999926,
    "lng": 0.44296308650007177
  },
  {
    "code": "NCL",
    "name": "New Caledonia",
    "lat": -21.147190036999916,
    "lng": 167.47974927800004
  },
  {
    "code": "MDG",
    "name": "Madagascar",
    "lat": -18.771091404499913,
    "lng": 46.863413933500084
  },
  {
    "code": "PHL",
    "name": "Philippines",
    "lat": 12.889044500500063,
    "lng": 121.78630618550005
  },
  {
    "code": "LKA",
    "name": "Sri Lanka",
    "lat": 7.8766543645000695,
    "lng": 80.77304121200007
  },
  {
    "code": "CUW",
    "name": "Curaçao",
    "lat": 12.216416734000063,
    "lng": -68.95573889899993
  },
  {
    "code": "ABW",
    "name": "Aruba",
    "lat": 12.524908758500061,
    "lng": -69.96961422449994
  },
  {
    "code": "BHS",
    "name": "Bahamas",
    "lat": 23.920405543000044,
    "lng": -76.17025712799992
  },
  {
    "code": "TCA",
    "name": "Turks and Caicos Is.",
    "lat": 21.62466054850006,
    "lng": -71.80510413299993
  },
  {
    "code": "TWN",
    "name": "Taiwan",
    "lat": 23.59601471600007,
    "lng": 120.14246666800005
  },
  {
    "code": "JPN",
    "name": "Japan",
    "lat": 34.86625804250005,
    "lng": 138.46188398550004
  },
  {
    "code": "SPM",
    "name": "St. Pierre and Miquelon",
    "lat": 46.947007554000066,
    "lng": -56.27068030499993
  },
  {
    "code": "ISL",
    "name": "Iceland",
    "lat": 64.98043447450004,
    "lng": -19.021412726999927
  },
  {
    "code": "PCN",
    "name": "Pitcairn Is.",
    "lat": -24.50074635249993,
    "lng": -127.76557369699992
  },
  {
    "code": "PYF",
    "name": "Fr. Polynesia",
    "lat": -17.79566822749993,
    "lng": -144.7399796214999
  },
  {
    "code": "ATF",
    "name": "Fr. S. Antarctic Lands",
    "lat": -30.636122328999903,
    "lng": 58.65674889400006
  },
  {
    "code": "SYC",
    "name": "Seychelles",
    "lat": -6.7733293594999395,
    "lng": 51.247406446500065
  },
  {
    "code": "KIR",
    "name": "Kiribati",
    "lat": -3.3690121399999384,
    "lng": 1.1537581715000442
  },
  {
    "code": "MHL",
    "name": "Marshall Is.",
    "lat": 9.592149156000062,
    "lng": 168.6560164720001
  },
  {
    "code": "TTO",
    "name": "Trinidad and Tobago",
    "lat": 10.696559963000084,
    "lng": -61.22539221949992
  },
  {
    "code": "GRD",
    "name": "Grenada",
    "lat": 12.26628245650005,
    "lng": -61.606068488499915
  },
  {
    "code": "VCT",
    "name": "St. Vin. and Gren.",
    "lat": 12.982957261500047,
    "lng": -61.29187984899994
  },
  {
    "code": "BRB",
    "name": "Barbados",
    "lat": 13.197862046500063,
    "lng": -59.54055742099993
  },
  {
    "code": "LCA",
    "name": "Saint Lucia",
    "lat": 13.913275457500077,
    "lng": -60.98074296799993
  },
  {
    "code": "DMA",
    "name": "Dominica",
    "lat": 15.41783274900007,
    "lng": -61.36908932199992
  },
  {
    "code": "UMI",
    "name": "U.S. Minor Outlying Is.",
    "lat": 13.913275458000044,
    "lng": -5.368621385499907
  },
  {
    "code": "MSR",
    "name": "Montserrat",
    "lat": 16.747341213000055,
    "lng": -62.18533281149993
  },
  {
    "code": "ATG",
    "name": "Antigua and Barb.",
    "lat": 17.32982874695027,
    "lng": -62.00792613216988
  },
  {
    "code": "KNA",
    "name": "St. Kitts and Nevis",
    "lat": 17.258185125500063,
    "lng": -62.69892330599993
  },
  {
    "code": "VIR",
    "name": "U.S. Virgin Is.",
    "lat": 18.034682316000044,
    "lng": -64.80044519049994
  },
  {
    "code": "BLM",
    "name": "St-Barthélemy",
    "lat": 17.90556468300005,
    "lng": -62.82949785099993
  },
  {
    "code": "PRI",
    "name": "Puerto Rico",
    "lat": 18.222845770000077,
    "lng": -66.59121660049993
  },
  {
    "code": "AIA",
    "name": "Anguilla",
    "lat": 18.38517894100005,
    "lng": -63.177252428360866
  },
  {
    "code": "VGB",
    "name": "British Virgin Is.",
    "lat": 18.54045237850005,
    "lng": -64.52236894449993
  },
  {
    "code": "JAM",
    "name": "Jamaica",
    "lat": 18.11414215700006,
    "lng": -77.28132076699993
  },
  {
    "code": "CYM",
    "name": "Cayman Is.",
    "lat": 19.510747226000063,
    "lng": -80.57159235649993
  },
  {
    "code": "BMU",
    "name": "Bermuda",
    "lat": 32.318367663297906,
    "lng": -64.76681234730549
  },
  {
    "code": "HMD",
    "name": "Heard I. and McDonald Is.",
    "lat": -53.077080987499926,
    "lng": 73.52409915450005
  },
  {
    "code": "SHN",
    "name": "Saint Helena",
    "lat": -24.137872003499922,
    "lng": -10.034047003999916
  },
  {
    "code": "MUS",
    "name": "Mauritius",
    "lat": -15.420627536999945,
    "lng": 60.00904381600006
  },
  {
    "code": "COM",
    "name": "Comoros",
    "lat": -11.870782159499925,
    "lng": 43.87114505300005
  },
  {
    "code": "STP",
    "name": "São Tomé and Principe",
    "lat": 0.8619448915000589,
    "lng": 6.962209506000079
  },
  {
    "code": "CPV",
    "name": "Cabo Verde",
    "lat": 16.000270900500084,
    "lng": -24.013498501999948
  },
  {
    "code": "MLT",
    "name": "Malta",
    "lat": 35.93840159700005,
    "lng": 14.375376824000085
  },
  {
    "code": "JEY",
    "name": "Jersey",
    "lat": 49.21918366050005,
    "lng": -2.125152147499932
  },
  {
    "code": "GGY",
    "name": "Guernsey",
    "lat": 49.57147858250005,
    "lng": -2.4218847319999384
  },
  {
    "code": "IMN",
    "name": "Isle of Man",
    "lat": 54.237982489000075,
    "lng": -4.551035122999934
  },
  {
    "code": "ALA",
    "name": "Åland",
    "lat": 60.19263336800006,
    "lng": 20.304942253500087
  },
  {
    "code": "FRO",
    "name": "Faeroe Is.",
    "lat": 61.896511135000054,
    "lng": -6.959970669499938
  },
  {
    "code": "-99",
    "name": "Indian Ocean Ter.",
    "lat": -11.315402927499917,
    "lng": 101.26811770900005
  },
  {
    "code": "IOT",
    "name": "Br. Indian Ocean Ter.",
    "lat": -6.329603773999935,
    "lng": 71.87781823000003
  },
  {
    "code": "SGP",
    "name": "Singapore",
    "lat": 1.3564720720000594,
    "lng": 103.82191002700003
  },
  {
    "code": "NFK",
    "name": "Norfolk Island",
    "lat": -29.038750909499925,
    "lng": 167.95423424600006
  },
  {
    "code": "COK",
    "name": "Cook Is.",
    "lat": -15.442803643999923,
    "lng": -161.56867428299992
  },
  {
    "code": "TON",
    "name": "Tonga",
    "lat": -18.94915130049992,
    "lng": -175.06678219349993
  },
  {
    "code": "WLF",
    "name": "Wallis and Futuna Is.",
    "lat": -13.764174086499935,
    "lng": -177.15566972599993
  },
  {
    "code": "WSM",
    "name": "Samoa",
    "lat": -13.757826429999938,
    "lng": -172.1101374994999
  },
  {
    "code": "SLB",
    "name": "Solomon Is.",
    "lat": -9.445245049999926,
    "lng": 162.16692142000005
  },
  {
    "code": "TUV",
    "name": "Tuvalu",
    "lat": -7.549086195999934,
    "lng": 178.01600182400006
  },
  {
    "code": "MDV",
    "name": "Maldives",
    "lat": 3.209336655500067,
    "lng": 73.21900475350003
  },
  {
    "code": "NRU",
    "name": "Nauru",
    "lat": -0.5211320944999329,
    "lng": 166.93262780050003
  },
  {
    "code": "FSM",
    "name": "Micronesia",
    "lat": 5.346869207500049,
    "lng": 150.55518639400003
  },
  {
    "code": "SGS",
    "name": "S. Geo. and the Is.",
    "lat": -56.722588799999926,
    "lng": -32.163177049999945
  },
  {
    "code": "FLK",
    "name": "Falkland Is.",
    "lat": -51.71714365349993,
    "lng": -59.52623450449994
  },
  {
    "code": "VUT",
    "name": "Vanuatu",
    "lat": -16.658990166999928,
    "lng": 168.2097274095001
  },
  {
    "code": "NIU",
    "name": "Niue",
    "lat": -19.053399346999925,
    "lng": -169.86666826049992
  },
  {
    "code": "ASM",
    "name": "American Samoa",
    "lat": -12.792128187999936,
    "lng": -169.62350419849992
  },
  {
    "code": "PLW",
    "name": "Palau",
    "lat": 5.522829943815724,
    "lng": 132.92922855989963
  },
  {
    "code": "GUM",
    "name": "Guam",
    "lat": 13.447577215500075,
    "lng": 144.78817793050007
  },
  {
    "code": "MNP",
    "name": "N. Mariana Is.",
    "lat": 17.333034572500083,
    "lng": 145.38550865950003
  },
  {
    "code": "BHR",
    "name": "Bahrain",
    "lat": 25.93366486007893,
    "lng": 50.600202339320724
  },
  {
    "code": "-99",
    "name": "Coral Sea Is.",
    "lat": -21.029392185499916,
    "lng": 154.38990319100003
  },
  {
    "code": "-99",
    "name": "Spratly Is.",
    "lat": 10.398749090500075,
    "lng": 114.93824303500003
  },
  {
    "code": "-99",
    "name": "Clipperton I.",
    "lat": 10.296291408500053,
    "lng": -109.22229977149993
  },
  {
    "code": "MAC",
    "name": "Macao",
    "lat": 22.163072007500062,
    "lng": 113.55368086050004
  },
  {
    "code": "-99",
    "name": "Ashmore and Cartier Is.",
    "lat": -12.432590427499889,
    "lng": 123.58639570400004
  },
  {
    "code": "-99",
    "name": "Bajo Nuevo Bank",
    "lat": 15.795192775500084,
    "lng": -79.9878433909999
  },
  {
    "code": "-99",
    "name": "Serranilla Bank",
    "lat": 15.864691473500073,
    "lng": -78.63864091749991
  },
  {
    "code": "-99",
    "name": "Scarborough Reef",
    "lat": 15.152225644000083,
    "lng": 117.75377435600006
  }
]